stop_id,stop_code,stop_name,stop_desc,stop_lat,stop_lon,zone_id,stop_url,location_type,platform_code
10_01,,BCコザ（市立図書館）,,26.34086,127.798798,10_01,,0,
10_02,,BCコザ（市立図書館）,,26.340877,127.798926,10_02,,0,
11_01,,Sky Synapse (スカイシナプス),,26.328817,127.833985,11_01,,0,
12_01,,TAPIC 沖縄リハビリテーションセンター病院,,26.31496,127.823678,12_01,,0,
13_01,,あわせモール前,,26.333562,127.834367,13_01,,0,
14_01,,アワセ第一デイサービス,,26.316,127.836452,14_01,,0,
15_01,,うえはら眼科前,,26.327015,127.81451,15_01,,0,
16_01,,かりゆし園前,,26.36629,127.81958,16_01,,0,
17_01,,コザ運動公園,,26.333195,127.791382,17_01,,0,
18_01,,コザ信用金庫胡屋支店前,,26.337459,127.8005,18_01,,0,
19_01,,ソフィアクリニック,,26.329901,127.812707,19_01,,0,
20_01,,ちばなクリニック,,26.363971,127.816804,20_01,,0,
21_01,,ちむわざ歯科前,,26.323935,127.825753,21_01,,0,
22_01,,ちゃんぷるー市場,,26.368264,127.816338,22_01,,0,
23_01,,ひが薬局美里店,,26.347111,127.81738,23_01,,0,
24_01,,ピザアントレ,,26.318913,127.825673,24_01,,0,
25_01,,ビジュル公園前,,26.320837,127.833279,25_01,,0,
26_01,,プラザハウス前,,26.319408,127.793254,26_01,,0,
27_01,,ミュージックタウン,,26.33572,127.79951,27_01,,0,
28_01,,メモリアルホール沖縄前,,26.3537,127.80801,28_01,,0,
29_01,,モーリアクラシック沖縄迎賓館,,26.356977,127.805423,29_01,,0,
30_01,,ユニオン宮里店,,26.341723,127.824179,30_01,,0,
31_01,,レフ沖縄byベッセルホテルズ,,26.3344785,127.7866729,31_01,,0,
32_01,,わしみ橋,,26.33614,127.8194,32_01,,0,
33_01,,愛聖クリニック,,26.32215,127.828895,33_01,,0,
34_01,,安慶田５丁目,,26.32743,127.810601,34_01,,0,
35_01,,安慶田バイパス（安室橋）,,26.332106,127.809229,35_01,,0,
36_01,,安立医院前,,26.327063,127.78702,36_01,,0,
37_01,,一番街・サンシティ,,26.33721,127.79914,37_01,,0,
38_01,,沖縄こどもの国,,26.32772,127.80292,38_01,,0,
39_01,,沖縄県総合運動公園 中央口,,26.306549,127.819461,39_01,,0,
40_01,,沖縄県総合運動公園 北口,,26.312239,127.816946,40_01,,0,
41_01,,沖縄市民会館,,26.343635,127.799731,41_01,,0,
41_02,,沖縄市民会館,,26.34497,127.800218,41_02,,0,
42_01,,嘉間良２丁目,,26.343623,127.805538,42_01,,0,
43_01,,海邦町自治会,,26.331477,127.834047,43_01,,0,
44_01,,株式会社 三和ハウス前,,26.384666,127.827579,44_01,,0,
45_01,,吉本工業前,,26.373345,127.826369,45_01,,0,
46_01,,銀天街（コザ十字路）,,26.338728,127.814827,46_01,,0,
47_01,,古謝バス停,,26.33686,127.830668,47_01,,0,
48_01,,古謝津嘉山町,,26.342177,127.827898,48_01,,0,
49_01,,後原,,26.388333,127.828946,49_01,,0,
50_01,,高原1丁目,,26.326833,127.814428,50_01,,0,
51_01,,高原十字路 (下り),,26.325924,127.821846,51_01,,0,
52_01,,高原十字路 (上り),,26.325887,127.821742,52_01,,0,
53_01,,高速山里バス停,,26.31887,127.78978,53_01,,0,
54_01,,合名会社総合センター,,26.320246,127.785038,54_01,,0,
55_01,,山内３丁目,,26.32669,127.78573,55_01,,0,
56_01,,山内自治会,,26.32915,127.783958,56_01,,0,
57_01,,字松本,,26.35313,127.82216,57_01,,0,
58_01,,社会福祉センター,,26.338809,127.810162,58_01,,0,
59_01,,照屋２丁目,,26.333611,127.815003,59_01,,0,
60_01,,新垣病院前,,26.329133,127.809752,60_01,,0,
61_01,,大里2丁目,,26.327908,127.825481,61_01,,0,
62_01,,知花6丁目,,26.36238,127.821802,62_01,,0,
63_01,,知花十字路,,26.360555,127.812634,63_01,,0,
64_01,,池原公民館,,26.378873,127.827733,64_01,,0,
65_01,,中の町自治会,,26.336091,127.79461,65_01,,0,
66_01,,中頭病院,,26.366716,127.825338,66_01,,0,
67_01,,中部たたみ店,,26.355508,127.817652,67_01,,0,
68_01,,中部観光バス前,,26.349782,127.803062,68_01,,0,
69_01,,中部興産沖縄市役所前,,26.33411,127.80449,69_01,,0,
70_01,,中部電算フォーム前,,26.331004,127.790576,70_01,,0,
71_01,,中部徳洲会病院,,26.31672,127.79673,71_01,,0,
72_01,,仲松商事前,,26.341398,127.808829,72_01,,0,
73_01,,仲本工業前,,26.352072,127.804012,73_01,,0,
74_01,,登川3丁目,,26.372264,127.826849,74_01,,0,
75_01,,登川バス停,,26.371851,127.820645,75_01,,0,
76_01,,島袋小学校,,26.322969,127.797531,76_01,,0,
77_01,,東桃原公民館前,,26.33092,127.827163,77_01,,0,
78_01,,東部クリニック前,,26.308269,127.815864,78_01,,0,
79_01,,桃山クリニック,,26.321236,127.784138,79_01,,0,
80_01,,八重島公園,,26.345659,127.802568,80_01,,0,
81_01,,美原4丁目,,26.351509,127.817821,81_01,,0,
82_01,,美咲特別支援学校前,,26.35246,127.81434,82_01,,0,
83_01,,美里ヒフ科前,,26.347273,127.824984,83_01,,0,
84_01,,美里公園,,26.348743,127.818633,84_01,,0,
85_01,,美里公民館,,26.346031,127.814398,85_01,,0,
86_01,,美里市営住宅前,,26.351812,127.816566,86_01,,0,
87_01,,美里団地,,26.352348,127.806111,87_01,,0,
88_01,,泡瀬2丁目,,26.318889,127.837667,88_01,,0,
89_01,,泡瀬3丁目,,26.315893,127.831346,89_01,,0,
90_01,,泡瀬バス停,,26.335001,127.82748,90_01,,0,
91_01,,泡瀬橋,,26.325402,127.832482,91_01,,0,
92_01,,北美小学校（下り）,,26.376669,127.821544,92_01,,0,
93_01,,北美小学校（上り）,,26.376411,127.821661,93_01,,0,
94_01,,北美団地,,26.384086,127.828703,94_01,,0,
95_01,,嶺住宅設備前,,26.379364,127.825308,95_01,,0,
96_01,,翔南病院,,26.326704,127.782112,96_01,,0,
