stop_id,stop_code,stop_name,stop_desc,stop_lat,stop_lon,zone_id,stop_url,location_type,platform_code
S4716,,南城市役所,,26.163703,127.769955,S4716,,,
S4659,,新里,,26.171673,127.771736,S4659,,,
S4602,,小谷,,26.175157,127.767665,S4602,,,
S4731,,馬天小学校前,,26.180668,127.769149,S4731,,,
S4727,,馬天入口,,26.183617,127.774403,S4727,,,
S4725,,馬天,,26.182496,127.775127,S4725,,,
S4655,,新開,,26.176967,127.773903,S4655,,,
S4662,,新里入口,,26.173969,127.774261,S4662,,,
S4787,,老人福祉センター入口,,26.171669,127.777957,S4787,,,
S4614,,兼久,,26.170297,127.780817,S4614,,,
S4635,,佐敷小学校前,,26.167998,127.786570,S4635,,,
S4654,,シュガーホール入口,,26.167803,127.788323,S4654,,,
S4633,,佐敷,,26.167832,127.792324,S4633,,,
S4701,,手登根,,26.170020,127.797331,S4701,,,
S4672,,第二手登根,,26.172040,127.799852,S4672,,,
S4783,,屋比久,,26.176433,127.799736,S4783,,,
S4703,,仲伊保,,26.182142,127.799462,S4703,,,
S4624,,久原,,26.185756,127.804084,S4624,,,
S5711,,あかし内科クリニック前,,26.187348,127.806769,S5711,,,
S4581,,海野入口,,26.188631,127.809230,S4581,,,
S4579,,海野,,26.189172,127.811528,S4579,,,
S4559,,板馬,,26.188904,127.817043,S4559,,,
S4688,,知名,,26.183495,127.818863,S4688,,,
S4550,,安座真,,26.178020,127.822106,S4550,,,
S4553,,あざまサンサンビーチ入口,,26.178135,127.825146,S4553,,,
S4692,,知念海洋レジャーセンター前,,26.173732,127.828972,S4692,,,
S4666,,斎場御嶽入口,,26.169270,127.826509,S4666,,,
S4622,,久手堅,,26.169655,127.822120,S4622,,,
S4696,,知念小学校前,,26.169707,127.820657,S4696,,,
S4722,,ニライカナイ橋,,26.167070,127.812531,S4722,,,
S4600,,沖縄刑務所前,,26.161478,127.803341,S4600,,,
S4736,,東つきしろ,,26.161008,127.793660,S4736,,,
S4698,,つきしろの街,,26.159789,127.791415,S4698,,,
S4718,,西つきしろ,,26.159224,127.788567,S4718,,,
S4699,,つきしろの街入口,,26.152317,127.789208,S4699,,,
S4604,,親慶原,,26.155106,127.781677,S4604,,,
S4606,,親慶原入口,,26.156395,127.780223,S4606,,,
S4647,,下親慶原,,26.161438,127.775297,S4647,,,
S4664,,新里坂,,26.163132,127.773733,S4664,,,
S4665,,新里坂,,26.163154,127.773800,S4665,,,
S4648,,下親慶原,,26.161248,127.775769,S4648,,,
S4607,,親慶原入口,,26.157030,127.779987,S4607,,,
S4605,,親慶原,,26.155193,127.781804,S4605,,,
S4700,,つきしろの街入口,,26.152363,127.789283,S4700,,,
S4717,,西つきしろ,,26.159296,127.788643,S4717,,,
S4697,,つきしろの街,,26.159797,127.791194,S4697,,,
S4735,,東つきしろ,,26.161196,127.793599,S4735,,,
S4599,,沖縄刑務所前,,26.161492,127.803229,S4599,,,
S4721,,ニライカナイ橋,,26.167189,127.812589,S4721,,,
S4695,,知念小学校前,,26.169746,127.820685,S4695,,,
S4623,,久手堅,,26.169794,127.822245,S4623,,,
S4667,,斎場御嶽入口,,26.169203,127.825109,S4667,,,
S4693,,知念海洋レジャーセンター前,,26.175363,127.828425,S4693,,,
S4554,,あざまサンサンビーチ入口,,26.178101,127.824903,S4554,,,
S4552,,安座真港,,26.179137,127.826667,S4552,,,
S4551,,安座真,,26.177996,127.822342,S4551,,,
S4689,,知名,,26.183714,127.818709,S4689,,,
S4560,,板馬,,26.188725,127.817368,S4560,,,
S4580,,海野,,26.189119,127.811632,S4580,,,
S4582,,海野入口,,26.188720,127.809790,S4582,,,
S5710,,あかし内科クリニック前,,26.187370,127.806974,S5710,,,
S4625,,久原,,26.185422,127.803670,S4625,,,
S4704,,仲伊保,,26.180994,127.798715,S4704,,,
S4784,,屋比久,,26.176700,127.799766,S4784,,,
S4673,,第二手登根,,26.171917,127.799870,S4673,,,
S4702,,手登根,,26.169884,127.797120,S4702,,,
S4634,,佐敷,,26.167607,127.791897,S4634,,,
S4653,,シュガーホール入口,,26.167711,127.788216,S4653,,,
S4636,,佐敷小学校前,,26.167908,127.786440,S4636,,,
S4615,,兼久,,26.169688,127.781876,S4615,,,
S4788,,老人福祉センター入口,,26.171771,127.777581,S4788,,,
S4663,,新里入口,,26.173985,127.774148,S4663,,,
S4656,,新開,,26.177209,127.773863,S4656,,,
S4728,,馬天入口,,26.183678,127.774259,S4728,,,
S4730,,馬天自動車学校前,,26.184359,127.776994,S4730,,,
S4601,,沖縄メディカル病院前,,26.186502,127.775498,S4601,,,
S4732,,馬天小学校前,,26.180574,127.769246,S4732,,,
S4603,,小谷,,26.175179,127.767790,S4603,,,
S4658,,新里,,26.171784,127.771786,S4658,,,
S4631,,小羊保育園前,,26.154833,127.780589,S4631,,,
S4670,,第二喜良原,,26.152491,127.776875,S4670,,,
S4618,,喜良原,,26.152867,127.773786,S4618,,,
S4669,,世利田,,26.155680,127.772370,S4669,,,
S4561,,糸数,,26.152019,127.761662,S4561,,,
S4563,,糸数入口,,26.148636,127.760260,S4563,,,
S4782,,屋嘉部入口,,26.147504,127.762040,S4782,,,
S4684,,玉城中学校前,,26.144293,127.765156,S4684,,,
S4748,,富里,,26.142826,127.767794,S4748,,,
S4642,,志堅原,,26.136152,127.769097,S4642,,,
S4644,,志堅原入口,,26.134283,127.770256,S4644,,,
S4585,,奥武島,,26.131577,127.772348,S4585,,,
S4616,,玉泉洞前,,26.141136,127.747629,S4616,,,
S4765,,前川,,26.143034,127.747055,S4765,,,
S4768,,前川入口,,26.146268,127.744923,S4768,,,
S4751,,船越,,26.152327,127.751502,S4751,,,
S4754,,船越入口,,26.156121,127.749179,S4754,,,
S4555,,愛地,,26.159670,127.745799,S4555,,,
S4780,,目取真入口,,26.160626,127.740928,S4780,,,
S4790,,湧稲国,,26.160206,127.737777,S4790,,,
S4791,,湧稲国入口,,26.160751,127.730875,S4791,,,
S4566,,稲嶺,,26.164996,127.734709,S4566,,,
S4568,,稲嶺入口,,26.167610,127.737119,S4568,,,
S4570,,稲嶺十字路,,26.169910,127.740318,S4570,,,
S4678,,高宮城,,26.172424,127.744110,S4678,,,
S4707,,仲程南,,26.174107,127.745861,S4707,,,
S4592,,大里中学校前,,26.178394,127.747346,S4592,,,
S4676,,平良入口,,26.180859,127.747375,S4676,,,
S4758,,古堅入口,,26.185142,127.748076,S4758,,,
S4756,,古堅,,26.188417,127.746273,S4756,,,
S4650,,島袋,,26.189657,127.745829,S4650,,,
S4746,,福原,,26.193118,127.745244,S4746,,,
S4778,,嶺井団地入口,,26.195638,127.747628,S4778,,,
S4587,,大里北小学校前,,26.189503,127.752406,S4587,,,
S4724,,南風原,,26.187330,127.755857,S4724,,,
S4719,,西原入口,,26.185374,127.758099,S4719,,,
S4771,,真境名,,26.177690,127.755946,S4771,,,
S4594,,大里ニュータウン,,26.176287,127.751893,S4594,,,
S4590,,大里第二団地前,,26.174125,127.751542,S4590,,,
S4572,,稲福,,26.170688,127.753889,S4572,,,
S4597,,大城入口,,26.164406,127.755695,S4597,,,
S4596,,大城,,26.163289,127.758735,S4596,,,
S4668,,世利田,,26.155762,127.772459,S4668,,,
S4619,,喜良原,,26.153016,127.773877,S4619,,,
S4671,,第二喜良原,,26.152780,127.776897,S4671,,,
S4632,,小羊保育園前,,26.155098,127.780495,S4632,,,
S4595,,大城,,26.163170,127.759255,S4595,,,
S4598,,大城入口,,26.164471,127.755550,S4598,,,
S4573,,稲福,,26.170631,127.753825,S4573,,,
S4593,,大里ニュータウン,,26.176179,127.751373,S4593,,,
S4770,,真境名,,26.177777,127.755927,S4770,,,
S4720,,西原入口,,26.185543,127.757978,S4720,,,
S4723,,南風原,,26.187224,127.755838,S4723,,,
S4586,,大里北小学校前,,26.189476,127.752253,S4586,,,
S4777,,嶺井団地入口,,26.195571,127.747518,S4777,,,
S4745,,福原,,26.193348,127.745342,S4745,,,
S4649,,島袋,,26.189400,127.746000,S4649,,,
S4755,,古堅,,26.187800,127.746600,S4755,,,
S4757,,古堅入口,,26.184720,127.748444,S4757,,,
S4675,,平良入口,,26.180800,127.747500,S4675,,,
S4591,,大里中学校前,,26.178222,127.747194,S4591,,,
S4708,,仲程南,,26.174245,127.746022,S4708,,,
S4677,,高宮城,,26.172000,127.743500,S4677,,,
S4571,,稲嶺十字路,,26.168700,127.739311,S4571,,,
S4569,,稲嶺入口,,26.167398,127.737015,S4569,,,
S4567,,稲嶺,,26.165221,127.735201,S4567,,,
S4792,,湧稲国入口,,26.160530,127.730848,S4792,,,
S4793,,湧稲国公民館前,,26.160140,127.736334,S4793,,,
S4789,,湧稲国,,26.160500,127.738200,S4789,,,
S4779,,目取真入口,,26.160602,127.741041,S4779,,,
S4556,,愛地,,26.159307,127.746405,S4556,,,
S4753,,船越入口,,26.155800,127.749500,S4753,,,
S4752,,船越,,26.151581,127.752194,S4752,,,
S4767,,前川入口,,26.146000,127.745200,S4767,,,
S4766,,前川,,26.143419,127.746760,S4766,,,
S4617,,玉泉洞前,,26.140359,127.747467,S4617,,,
S4762,,堀川入口,,26.132823,127.763211,S4762,,,
S4646,,志堅原公民館前,,26.133238,127.768545,S4646,,,
S4643,,志堅原入口,,26.134240,127.770170,S4643,,,
S4641,,志堅原,,26.136113,127.768947,S4641,,,
S4750,,富里（国道側）,,26.141098,127.768952,S4750,,,
S4747,,富里,,26.142745,127.767815,S4747,,,
S4683,,玉城中学校前,,26.144661,127.764505,S4683,,,
S4781,,屋嘉部入口,,26.147471,127.761960,S4781,,,
S4565,,糸数入口,,26.147946,127.760393,S4565,,,
S4562,,糸数,,26.152708,127.762076,S4562,,,
S4712,,中山入口,,26.140800,127.771900,S4712,,,
S4710,,中山,,26.138900,127.776800,S4710,,,
S4679,,玉城,,26.139700,127.783900,S4679,,,
S4612,,カチャ原,,26.139342,127.786721,S4612,,,
S4744,,百名バスターミナル前,,26.139761,127.789830,S4744,,,
S4737,,百名,,26.141370,127.791683,S4737,,,
S4739,,百名入口,,26.142146,127.792544,S4739,,,
S4714,,仲村渠,,26.145256,127.792269,S4714,,,
S4610,,垣花,,26.148417,127.790818,S4610,,,
S4583,,大道,,26.144189,127.756733,S4583,,,
S4769,,前川ムラヤー前,,26.145135,127.749726,S4769,,,
S4574,,石川入口,,26.151855,127.743128,S4574,,,
S4557,,愛地入口,,26.154962,127.740940,S4557,,,
S4578,,上地原,,26.156856,127.739589,S4578,,,
S4609,,親泊商店前,,26.158511,127.737602,S4609,,,
S4564,,糸数入口,,26.148176,127.759228,S4564,,,
S4686,,玉城小学校前,,26.145871,127.764436,S4686,,,
S4611,,垣花,,26.148836,127.791006,S4611,,,
S4715,,仲村渠,,26.145495,127.792126,S4715,,,
S4740,,百名入口,,26.141886,127.792595,S4740,,,
S4738,,百名,,26.141338,127.791775,S4738,,,
S4743,,百名バスターミナル前,,26.139500,127.789500,S4743,,,
S4613,,カチャ原,,26.139205,127.786762,S4613,,,
S4680,,玉城,,26.140260,127.782755,S4680,,,
S4711,,中山,,26.138777,127.776800,S4711,,,
S4713,,中山入口,,26.140605,127.771891,S4713,,,
S4749,,富里（国道側）,,26.141546,127.769965,S4749,,,
S4584,,奥武入口,,26.137800,127.766500,S4584,,,
S4685,,玉城小学校前,,26.145816,127.764529,S4685,,,
S5713,,第二大城,,26.163410,127.756789,S5713,,,
S4705,,仲程,,26.176200,127.747600,S4705,,,
S4775,,南小学校前,,26.173900,127.746200,S4775,,,
S4628,,県営知念団地前,,26.164674,127.818489,S4628,,,
S4690,,知念,,26.160826,127.814890,S4690,,,
S4626,,久美山,,26.159054,127.813519,S4626,,,
S4621,,具志堅,,26.156126,127.809592,S4621,,,
S4786,,山里,,26.154859,127.805008,S4786,,,
S4639,,志喜屋入口,,26.152642,127.800850,S4639,,,
S4637,,志喜屋,,26.151698,127.799230,S4637,,,
S4651,,下田,,26.146612,127.795802,S4651,,,
S4741,,百名団地前,,26.142486,127.795334,S4741,,,
S4682,,玉城入口,,26.138306,127.785306,S4682,,,
S4729,,馬天自動車学校前,,26.184306,127.777144,S4729,,,
S4772,,新原入口,,26.137305,127.790813,S4772,,,
S4774,,新原ビーチ,,26.134792,127.791190,S4774,,,
S4773,,新原入口,,26.137855,127.791030,S4773,,,
S4681,,玉城入口,,26.138156,127.785312,S4681,,,
S4742,,百名団地前,,26.141918,127.794824,S4742,,,
S4652,,下田,,26.146662,127.795756,S4652,,,
S4638,,志喜屋,,26.151095,127.798444,S4638,,,
S4640,,志喜屋入口,,26.152825,127.801132,S4640,,,
S4785,,山里,,26.154865,127.804916,S4785,,,
S4620,,具志堅,,26.156129,127.809580,S4620,,,
S4627,,久美山,,26.159118,127.813495,S4627,,,
S4691,,知念,,26.160922,127.814894,S4691,,,
S4629,,県営知念団地前,,26.164928,127.818403,S4629,,,
S4132,,馬天,,26.181289,127.774951,S4132,,,
S4759,,堀川,,26.132900,127.761700,S4759,,,
S4763,,堀川橋,,26.131900,127.760500,S4763,,,
S5757,,向陽高校前,,26.127620,127.754246,S5757,,,
S4589,,大里第二団地前,,26.174192,127.751621,S4589,,,
S5758,,向陽高校前,,26.127672,127.754496,S5758,,,
S4764,,堀川橋,,26.131966,127.760636,S4764,,,
S4760,,堀川,,26.133014,127.761726,S4760,,,
S6048,,奥武入口,,26.137736,127.766566,S6048,,,
