{
  "journey": {
    "start": "那覇バスターミナル　のりば ３",
    "end": "糸満バスターミナル"
  },
  "routes": [
    {
      "option": 1,
      "summary": {
        "text": "所要時間: - 運賃:― 乗継回数:0 (Realtime converted: 糸満線（共同運行）下り那覇西高校経由糸満向け)",
        "duration": "",
        "fare": "―",
        "transfers": "0",
        "notes": "Realtime converted: 糸満線（共同運行）下り那覇西高校経由糸満向け"
      },
      "legs": [
        {
          "departure": "",
          "arrival": "",
          "fare": "―",
          "description": "糸満線（共同運行）下り那覇西高校経由糸満向け",
          "mode": "bus"
        }
      ],
      "stops": [
        {
          "name": "那覇バスターミナル　のりば ３",
          "type": "bus",
          "sid": "a7baf831-4cd4-46a6-afce-716382eab0f1",
          "lat": "1.572425",
          "lon": "7.660719",
          "teiryujyoCd": "9103"
        },
        {
          "name": "上泉（与儀十字路向け）",
          "type": "bus",
          "sid": "d72f884d-1128-4c62-ae2d-47840c17421a",
          "lat": "1.572402",
          "lon": "7.660855",
          "teiryujyoCd": "0000"
        },
        {
          "name": "県庁南口（与儀十字路向け）",
          "type": "bus",
          "sid": "dbd720b9-2a83-4518-bf60-07e9881bcaca",
          "lat": "1.572419",
          "lon": "7.660974",
          "teiryujyoCd": "0000"
        },
        {
          "name": "那覇高校前（与儀十字路向け）",
          "type": "bus",
          "sid": "387a119c-1290-417b-ad5e-bbc10a29d1b8",
          "lat": "1.572417",
          "lon": "7.661163",
          "teiryujyoCd": "0000"
        },
        {
          "name": "開南（与儀十字路向け）",
          "type": "bus",
          "sid": "c89838fb-f00a-455f-8ff0-bb6918821a6a",
          "lat": "1.572456",
          "lon": "7.661392",
          "teiryujyoCd": "0000"
        },
        {
          "name": "与儀十字路（津嘉山・糸満向け）",
          "type": "bus",
          "sid": "40bd3ca6-54be-4064-acb5-d5df085a2a8d",
          "lat": "1.572196",
          "lon": "7.661578",
          "teiryujyoCd": "0000"
        },
        {
          "name": "与儀小学校前（津嘉山・糸満向け）",
          "type": "bus",
          "sid": "572c333c-2bfc-4a95-9405-22d7d4af2886",
          "lat": "1.572022",
          "lon": "7.661487",
          "teiryujyoCd": "0000"
        },
        {
          "name": "農協会館前（津嘉山・糸満向け）",
          "type": "bus",
          "sid": "f65a3e6e-9944-4031-9740-aa028d659de9",
          "lat": "1.571928",
          "lon": "7.661420",
          "teiryujyoCd": "0000"
        },
        {
          "name": "壺川（糸満・那覇空港向け）",
          "type": "bus",
          "sid": "c1f3657c-dda6-44c3-a78b-993e9d3b3119",
          "lat": "1.572007",
          "lon": "7.661021",
          "teiryujyoCd": "0000"
        },
        {
          "name": "西壷川（糸満・那覇空港向け）",
          "type": "bus",
          "sid": "676b84e0-10fc-4bdc-8337-f31412cd5623",
          "lat": "1.572129",
          "lon": "7.660922",
          "teiryujyoCd": "0000"
        },
        {
          "name": "旭町（糸満・那覇空港向け）",
          "type": "bus",
          "sid": "87a98cd8-c82d-4f51-9c4b-7e6afd4efc32",
          "lat": "1.572308",
          "lon": "7.660822",
          "teiryujyoCd": "0000"
        },
        {
          "name": "旭橋・那覇バスターミナル（公園前向け）",
          "type": "bus",
          "sid": "c13cb062-083e-4207-87de-348b5e63eff8",
          "lat": "1.572422",
          "lon": "7.660670",
          "teiryujyoCd": "0000"
        },
        {
          "name": "公園前（高良・小禄・空港向け）",
          "type": "bus",
          "sid": "f0cfb27e-4c2f-4c1d-8596-8e7287625dfb",
          "lat": "1.572030",
          "lon": "7.660444",
          "teiryujyoCd": "0100"
        },
        {
          "name": "軍桟橋前（高良・那覇空港向け）",
          "type": "bus",
          "sid": "6da1bed1-43d4-4334-9f5a-c3ff73a3b1f2",
          "lat": "1.572004",
          "lon": "7.660256",
          "teiryujyoCd": "0100"
        },
        {
          "name": "金城（小禄駅・航空隊前向け）",
          "type": "bus",
          "sid": "90455111-621d-414c-b2a8-5c0b4dc02eae",
          "lat": "1.571956",
          "lon": "7.659853",
          "teiryujyoCd": "0100"
        },
        {
          "name": "那覇西高校前（高良向け）",
          "type": "bus",
          "sid": "09e6302b-3a30-4055-a90d-012facfdbdc5",
          "lat": "1.571857",
          "lon": "7.660006",
          "teiryujyoCd": "0100"
        },
        {
          "name": "田原（高良向け）",
          "type": "bus",
          "sid": "886bf0ce-7f9d-40ee-9532-7d3753e595f7",
          "lat": "1.571690",
          "lon": "7.660240",
          "teiryujyoCd": "0100"
        },
        {
          "name": "小禄駅前（糸満・豊崎向け）",
          "type": "bus",
          "sid": "052b0daf-1478-41db-8bc1-1907091efa86",
          "lat": "1.571551",
          "lon": "7.660140",
          "teiryujyoCd": "0100"
        },
        {
          "name": "赤嶺安里原（糸満・豊崎向け）",
          "type": "bus",
          "sid": "575bd88a-17fa-4b88-88f6-8605ee204e86",
          "lat": "1.571374",
          "lon": "7.659867",
          "teiryujyoCd": "0100"
        },
        {
          "name": "赤嶺駅前（糸満・豊崎向け）",
          "type": "bus",
          "sid": "5d91ba89-4d61-47b5-ae90-6cf330bb43b8",
          "lat": "1.571350",
          "lon": "7.659730",
          "teiryujyoCd": "0100"
        },
        {
          "name": "第二ゲート（糸満・豊崎向け）",
          "type": "bus",
          "sid": "00234dd6-cd2a-41fe-9c9f-dae8027720c4",
          "lat": "1.571235",
          "lon": "7.659724",
          "teiryujyoCd": "0100"
        },
        {
          "name": "新町入口（高良・豊崎向け）",
          "type": "bus",
          "sid": "795bae01-8d2d-4f38-8418-ab4b70871278",
          "lat": "1.571163",
          "lon": "7.659731",
          "teiryujyoCd": "0100"
        },
        {
          "name": "宇栄原入口（糸満・豊崎向け）",
          "type": "bus",
          "sid": "0ab6cfc3-4267-460d-919c-ba6df850d3da",
          "lat": "1.571066",
          "lon": "7.659717",
          "teiryujyoCd": "0100"
        },
        {
          "name": "高良（糸満・豊崎向け）",
          "type": "bus",
          "sid": "8d957892-d6a7-40cf-a9ca-02ca058a3711",
          "lat": "1.570891",
          "lon": "7.659689",
          "teiryujyoCd": "0100"
        },
        {
          "name": "名嘉地（糸満・豊崎向け）",
          "type": "bus",
          "sid": "48e60490-82d7-4896-a8c1-f7ce7ea8fc8d",
          "lat": "1.570495",
          "lon": "7.659997",
          "teiryujyoCd": "0100"
        },
        {
          "name": "我那覇（糸満・豊崎向け）",
          "type": "bus",
          "sid": "2d49c146-0293-4b4c-bbee-368ad59f205c",
          "lat": "1.570173",
          "lon": "7.660091",
          "teiryujyoCd": "0100"
        },
        {
          "name": "伊良波（糸満・豊崎向け）",
          "type": "bus",
          "sid": "ddf1a4b3-8ff7-475b-9370-3ec7562ac07e",
          "lat": "1.570034",
          "lon": "7.660120",
          "teiryujyoCd": "0100"
        },
        {
          "name": "座安入口（糸満・豊崎向け）",
          "type": "bus",
          "sid": "d87aca23-baed-4a66-9059-8c562b1e5fc1",
          "lat": "1.569712",
          "lon": "7.660204",
          "teiryujyoCd": "0100"
        },
        {
          "name": "与根入口（糸満・豊崎向け）",
          "type": "bus",
          "sid": "632a731e-96f7-47d4-a6ad-95553e1f3e0b",
          "lat": "1.569606",
          "lon": "7.660232",
          "teiryujyoCd": "0100"
        },
        {
          "name": "豊見城南高校前（糸満向け）",
          "type": "bus",
          "sid": "dabf181b-5aef-48d1-b651-1ab3c3bf86dd",
          "lat": "1.569439",
          "lon": "7.660288",
          "teiryujyoCd": "0000"
        },
        {
          "name": "翁長入口（糸満向け）",
          "type": "bus",
          "sid": "8225600d-196a-4297-8220-34b9fc8e4bfb",
          "lat": "1.569204",
          "lon": "7.660342",
          "teiryujyoCd": "0000"
        },
        {
          "name": "翁長（糸満向け）",
          "type": "bus",
          "sid": "8350a9af-b39e-41f0-a6eb-e6c1d3746bae",
          "lat": "1.569002",
          "lon": "7.660398",
          "teiryujyoCd": "0000"
        },
        {
          "name": "阿波根（糸満ロータリー向け）",
          "type": "bus",
          "sid": "44f27edf-4ce9-414a-a4fd-3bcbc66ce511",
          "lat": "1.568756",
          "lon": "7.660480",
          "teiryujyoCd": "0000"
        },
        {
          "name": "潮平（糸満ロータリー向け）",
          "type": "bus",
          "sid": "58b900b1-8dfe-431f-a0cb-8c44d5c71acf",
          "lat": "1.568415",
          "lon": "7.660494",
          "teiryujyoCd": "0000"
        },
        {
          "name": "西崎入口（糸満ロータリー向け）",
          "type": "bus",
          "sid": "36d7cc5f-96e7-43b2-9f8c-4fdadb02e7f5",
          "lat": "1.568253",
          "lon": "7.660436",
          "teiryujyoCd": "0000"
        },
        {
          "name": "糸満入口（糸満BT・向陽高校向け）",
          "type": "bus",
          "sid": "b63175a9-f0f2-4931-b235-c9ad17fefc4d",
          "lat": "1.567938",
          "lon": "7.660316",
          "teiryujyoCd": "0000"
        },
        {
          "name": "白銀堂前（糸満BT・向陽高校向け）",
          "type": "bus",
          "sid": "263a6278-aaa0-4b8a-879c-8ab96267e730",
          "lat": "1.567724",
          "lon": "7.660313",
          "teiryujyoCd": "0000"
        },
        {
          "name": "糸満西区（糸満BT・向陽高校向け）",
          "type": "bus",
          "sid": "07a7abb9-eb80-49ff-9403-7b15f1784475",
          "lat": "1.567643",
          "lon": "7.660311",
          "teiryujyoCd": "0000"
        },
        {
          "name": "糸満ロータリー（糸満BT・向陽高校向け）",
          "type": "bus",
          "sid": "523daa4b-6cb1-4766-89cc-de561b8a43c6",
          "lat": "1.567573",
          "lon": "7.660303",
          "teiryujyoCd": "0000"
        },
        {
          "name": "糸満市場入口（糸満バスターミナル向け）",
          "type": "bus",
          "sid": "37eb7314-efce-4a25-b322-e26941728364",
          "lat": "1.567512",
          "lon": "7.660192",
          "teiryujyoCd": "0000"
        },
        {
          "name": "糸満市役所入口（糸満バスターミナル向け）",
          "type": "bus",
          "sid": "d043927c-d701-4ad4-832f-4869ccdbbdc4",
          "lat": "1.567499",
          "lon": "7.660000",
          "teiryujyoCd": "0000"
        },
        {
          "name": "糸満バスターミナル",
          "type": "bus",
          "sid": "161e631b-4c43-4ca6-b80e-30662cc94d4b",
          "lat": "1.567485",
          "lon": "7.659910",
          "teiryujyoCd": "0200"
        }
      ],
      "courseSids": [
        "0142596c-2cac-448d-8583-11e77a23bcc6"
      ],
      "keitouSids": [
        "f05ce44e-f2f9-4686-90b4-ff244e1c5813"
      ],
      "passPoints": {
        "passpointlat1": [
          "1.572425",
          "1.572402",
          "1.572419",
          "1.572417",
          "1.572456",
          "1.572196",
          "1.572022",
          "1.571928",
          "1.572007",
          "1.572129",
          "1.572308",
          "1.572422",
          "1.572030",
          "1.572004",
          "1.571956",
          "1.571857",
          "1.571690",
          "1.571551",
          "1.571374",
          "1.571350",
          "1.571235",
          "1.571163",
          "1.571066",
          "1.570891",
          "1.570495",
          "1.570173",
          "1.570034",
          "1.569712",
          "1.569606",
          "1.569439",
          "1.569204",
          "1.569002",
          "1.568756",
          "1.568415",
          "1.568253",
          "1.567938",
          "1.567724",
          "1.567643",
          "1.567573",
          "1.567512",
          "1.567499",
          "1.567485"
        ],
        "passpointlng1": [
          "7.660719",
          "7.660855",
          "7.660974",
          "7.661163",
          "7.661392",
          "7.661578",
          "7.661487",
          "7.661420",
          "7.661021",
          "7.660922",
          "7.660822",
          "7.660670",
          "7.660444",
          "7.660256",
          "7.659853",
          "7.660006",
          "7.660240",
          "7.660140",
          "7.659867",
          "7.659730",
          "7.659724",
          "7.659731",
          "7.659717",
          "7.659689",
          "7.659997",
          "7.660091",
          "7.660120",
          "7.660204",
          "7.660232",
          "7.660288",
          "7.660342",
          "7.660398",
          "7.660480",
          "7.660494",
          "7.660436",
          "7.660316",
          "7.660313",
          "7.660311",
          "7.660303",
          "7.660192",
          "7.660000",
          "7.659910"
        ]
      }
    }
  ],
  "source": {
    "file": "./public/naha/446.json",
    "generatedAt": "2025-12-01T05:55:23.794Z"
  }
}